{"places":[{"group":"SF","name":"Embarcadero","address":"Embarcadero, San Francisco, CA, USA","location":{"lat":37.7992627,"lng":-122.39767319999999},"latitude":37.7992627,"longitude":-122.39767319999999,"type":"Attraction","notes":"Has Ferries"},{"group":"SF","name":"Civic Center","address":"Civic Center, San Francisco, CA 94102, USA","location":{"lat":37.7815533,"lng":-122.41564270000003},"latitude":37.7815533,"longitude":-122.41564270000003,"type":"Attraction","notes":"Cess Pit"},{"group":"SF","name":"Coit Tower","address":"United States","location":{"lat":37.8026894,"lng":-122.40583609999999},"latitude":37.8026894,"longitude":-122.40583609999999,"type":"Attraction","notes":"Good views"},{"group":"SF","name":"Asian Art Museum","address":"200 Larkin St, San Francisco, CA 94102, United States","location":{"lat":37.7802114,"lng":-122.41626159999998},"latitude":37.7802114,"longitude":-122.41626159999998,"type":"Museum","notes":"Museum"},{"group":"SF","name":"Haight-Ashbury","address":"Haight-Ashbury, San Francisco, CA 94117, USA","location":{"lat":37.7692204,"lng":-122.44813929999998},"latitude":37.7692204,"longitude":-122.44813929999998,"type":"Neighborhood","notes":"Hippies"},{"group":"SF","name":"The Castro","address":"The Castro, San Francisco, CA, USA","location":{"lat":37.7609082,"lng":-122.4350043},"latitude":37.7609082,"longitude":-122.4350043,"type":"Neighborhood","notes":"Place"},{"group":"SF","name":"Golden Gate Park","address":"San Francisco, CA, United States","location":{"lat":37.7694208,"lng":-122.48621379999997},"latitude":37.7694208,"longitude":-122.48621379999997,"type":"Park","notes":"Place"},{"group":"SF","name":"Tenderloin","address":"Tenderloin, San Francisco, CA, USA","location":{"lat":37.7846598,"lng":-122.41450580000003},"latitude":37.7846598,"longitude":-122.41450580000003,"type":"Neighborhood","notes":"Unsafe"},{"group":"SF","name":"Mission District","address":"Mission District, San Francisco, CA, USA","location":{"lat":37.7598648,"lng":-122.41479770000001},"latitude":37.7598648,"longitude":-122.41479770000001,"type":"Neighborhood","notes":"Tacos"},{"group":"SF","name":"Painted Ladies","address":"Steiner St, San Francisco, CA 94117, United States","location":{"lat":37.7762801,"lng":-122.4327323},"latitude":37.7762801,"longitude":-122.4327323,"type":"Landmark","notes":"Full House"},{"group":"SF","name":"Presidio","address":"Presidio, San Francisco, CA, USA","location":{"lat":37.7988737,"lng":-122.46619370000002},"latitude":37.7988737,"longitude":-122.46619370000002,"type":"Landmark","notes":"Park"},{"group":"SF","name":"Ocean Beach","address":"Ocean Beach, San Francisco, CA, USA","location":{"lat":37.75939210000001,"lng":-122.51073400000001},"latitude":37.75939210000001,"longitude":-122.51073400000001,"type":"Beach","notes":"Don't swim"},{"group":"SF","name":"Golden Gate Park","address":"San Francisco, CA, United States","location":{"lat":37.7694208,"lng":-122.48621379999997},"latitude":37.7694208,"longitude":-122.48621379999997,"type":"Outdoors","notes":"Pretty","id":"26542c7c02ab2795925b9cec81f7bac6047fd102"},{"group":"SF","name":"Lombard Street","address":"Lombard St, San Francisco, CA 94133, United States","location":{"lat":37.802139,"lng":-122.41874000000001},"latitude":37.802139,"longitude":-122.41874000000001,"type":"Attraction","notes":"Famous Street"},{"group":"Pleasant Hill","name":"Back Forty Texas BBQ Roadhouse & Saloon","address":"100 Coggins Dr, Pleasant Hill, CA 94523, United States","location":{"lat":37.9329074,"lng":-122.05800870000002},"latitude":37.9329074,"longitude":-122.05800870000002,"type":"Food","notes":"BBQ"},{"group":"Pleasant Hill","name":"Lindsay Wildlife Museum","address":"1931 1st Ave, Walnut Creek, CA 94597, United States","location":{"lat":37.9235274,"lng":-122.07571810000002},"latitude":37.9235274,"longitude":-122.07571810000002,"type":"Museum","notes":"Animals"},{"group":"Pleasant Hill","name":"Bart Pleasant Hill","address":"United States","location":{"lat":37.9285967,"lng":-122.05524259999999},"latitude":37.9285967,"longitude":-122.05524259999999,"type":"Transport","notes":"Train"},{"group":"Pleasant Hill","name":"Oak Park Hills Chapel","address":"3111 N Main St, Walnut Creek, CA 94597, United States","location":{"lat":37.9314821,"lng":-122.06107099999997},"latitude":37.9314821,"longitude":-122.06107099999997,"type":"Church","notes":"Church"},{"group":"Pleasant Hill","name":"Heavenly Bistro","address":"3116 Oak Rd, Walnut Creek, CA 94597, United States","location":{"lat":37.9319236,"lng":-122.0584551},"latitude":37.9319236,"longitude":-122.0584551,"type":"Food","notes":"Big portions"},{"group":"Pleasant Hill","name":"205 Coggins Dr","address":"205 Coggins Dr, Pleasant Hill, CA 94523, USA","location":{"lat":37.93331,"lng":-122.05714089999998},"latitude":37.93331,"longitude":-122.05714089999998,"type":"Apartment","notes":"lkxfjgh"},{"group":"Pleasant Hill","name":"203 Coggins Dr","address":"203 Coggins Dr, Pleasant Hill, CA 94523, USA","location":{"lat":37.93352600000001,"lng":-122.0574507},"latitude":37.93352600000001,"longitude":-122.0574507,"type":"Apartment","notes":"Note"},{"group":"Sydney","name":"Sydney Opera House","address":"Bennelong Point, Sydney NSW 2000, Australia","location":{"lat":-33.8567844,"lng":151.21529669999995},"latitude":-33.8567844,"longitude":151.21529669999995,"type":"Attraction","notes":"Take photos"},{"group":"SF","name":"Geary Street","address":"Geary St, San Francisco, CA, USA","location":{"lat":37.7868542,"lng":-122.41235749999998},"latitude":37.7868542,"longitude":-122.41235749999998,"type":"TEST","notes":"TEST"},{"group":"Pleasant Hill","name":"Pleasant Hill Library - Contra Costa County Library","address":"1750 Oak Park Blvd, Pleasant Hill, CA 94523, United States","location":{"lat":37.9344894,"lng":-122.0688457},"latitude":37.9344894,"longitude":-122.0688457,"type":"Library","notes":"Books"},{"group":"Sydney","name":"Sydney Opera House","address":"Bennelong Point, Sydney NSW 2000, Australia","location":{"lat":-33.8567844,"lng":151.21529669999995},"latitude":-33.8567844,"longitude":151.21529669999995,"type":"Attraction","notes":"VIews"},{"group":"Paris","name":"Eiffel Tower","address":"Champ de Mars, 5 Avenue Anatole France, 75007 Paris, France","location":{"lat":48.85837009999999,"lng":2.2944813000000295},"latitude":48.85837009999999,"longitude":2.2944813000000295,"type":"Tower","notes":"Famous"},{"group":"Pleasant Hill","name":"Pleasant Oaks Park","address":"2 Santa Barbara Rd, Pleasant Hill, CA 94523, United States","location":{"lat":37.9370355,"lng":-122.06883040000002},"latitude":37.9370355,"longitude":-122.06883040000002,"type":"Park","notes":"Test"},{"group":"SF","name":"Golden Gate Bridge","address":"Golden Gate Bridge, California, United States","location":{"lat":37.8199286,"lng":-122.47825510000001},"latitude":37.8199286,"longitude":-122.47825510000001,"type":"Attraction","notes":"Bridge"},{"group":"Pleasant Hill","name":"Pleasant Hill Park","address":"147 Gregory Ln, Pleasant Hill, CA 94523, United States","location":{"lat":37.9490262,"lng":-122.0656343},"latitude":37.9490262,"longitude":-122.0656343,"type":"Park","notes":"TEst"},{"group":"Menlo Park","name":"PACE Gallery","address":"300 El Camino Real, Menlo Park, CA 94025, United States","location":{"lat":37.44930110000001,"lng":-122.17456950000002},"latitude":37.44930110000001,"longitude":-122.17456950000002,"type":"Art Gallery","notes":"Art"},{"group":"Pleasant Hill","name":"Briones Regional Park","address":"2537 Reliez Valley Rd, Martinez, CA 94553, United States","location":{"lat":37.9432088,"lng":-122.1405413},"latitude":37.9432088,"longitude":-122.1405413,"type":"Park","notes":"Big pretty park"}]}